City_ID,City,Lat,Lng,Max Temp,Humidity,Cloudiness,Wind Speed,Country,Date
0,port mathurin,-19.6833,63.4167,74.41,80,32,17.05,MU,1690435043
1,west island,-12.1568,96.8225,76.98,83,75,21.85,CC,1690435044
2,whitehorse,60.7161,-135.0538,63.81,79,100,3.44,CA,1690434794
3,al qadarif,14.0349,35.3834,72.68,86,100,10.63,SD,1690435046
4,newman,37.3138,-121.0208,82.63,49,0,6.13,US,1690435047
5,aasiaat,68.7098,-52.8699,36.97,95,28,9.78,GL,1690435047
6,haiku-pauwela,20.9219,-156.3051,77.02,80,40,16.11,US,1690435048
7,paramirim,-13.4425,-42.2389,66.2,83,13,5.06,BR,1690434969
8,carnarvon,-24.8667,113.6333,65.5,46,12,15.82,AU,1690434837
9,codrington,-38.2667,141.9667,60.69,64,25,17.4,AU,1690435050
10,mundybash,53.211,87.2983,79.59,35,65,5.32,RU,1690435050
11,emerald,-23.5333,148.1667,71.35,51,79,18.86,AU,1690435051
12,waitangi,-43.9535,-176.5597,45.82,54,91,16.37,NZ,1690435051
13,darwin,-12.4611,130.8418,82.38,47,0,8.05,AU,1690435052
14,klyuchi,52.2667,79.1667,72.86,48,100,12.55,RU,1690435000
15,flying fish cove,-10.4217,105.6791,80.28,78,75,13.8,CX,1690435053
16,selty,57.3132,52.1345,74.01,64,80,9.84,RU,1690435053
17,isafjordur,66.0755,-23.124,44.04,88,96,11.59,IS,1690435054
18,papatowai,-46.5619,169.4708,43.83,83,100,18.95,NZ,1690435055
19,kolonia,50.9333,6.95,60.3,88,100,8.05,DE,1690434965
20,along,28.1667,94.7667,79.34,84,96,2.06,IN,1690435056
21,inarajan village,13.2736,144.7484,84.34,94,100,12.88,GU,1690435056
22,adamstown,-25.066,-130.1015,67.1,60,28,8.66,PN,1690434816
23,fort bragg,35.139,-79.006,80.33,86,0,3.44,US,1690434828
24,invercargill,-46.4,168.35,45.27,75,99,13.89,NZ,1690434824
25,lihue,21.9789,-159.3672,81.64,75,20,16.11,US,1690435030
26,margaret river,-33.95,115.0667,56.53,69,99,13.15,AU,1690434839
27,puerto natales,-51.7236,-72.4875,28.08,94,100,2.73,CL,1690435059
28,grytviken,-54.2811,-36.5092,33.76,99,100,12.71,GS,1690435060
29,yanykurgan,43.915,67.2481,98.89,18,97,11.14,KZ,1690435060
30,lebu,-37.6167,-73.65,47.46,86,94,1.7,CL,1690435060
31,hamilton,39.1834,-84.5333,82.42,76,100,12.66,US,1690435061
32,bethel,41.3712,-73.414,75.51,82,0,8.05,US,1690435061
33,longyearbyen,78.2186,15.6401,51.64,76,40,8.05,SJ,1690434912
34,alo,7.4178,6.7371,74.61,97,100,3.02,NG,1690435062
35,bredasdorp,-34.5322,20.0403,47.32,90,0,4.61,ZA,1690434856
36,port-aux-francais,-49.35,70.2167,40.3,79,83,34.23,TF,1690435063
37,wailua homesteads,22.0669,-159.378,81.03,81,20,16.11,US,1690435064
38,edinburgh of the seven seas,-37.0676,-12.3116,51.28,55,71,20.96,SH,1690435064
39,tobelo,1.7284,128.0095,85.62,69,40,6.38,ID,1690435065
40,minas de marcona,-15.2119,-75.1103,53.65,88,43,10.51,PE,1690435065
41,lhokseumawe,5.1801,97.1507,88.54,63,89,7.23,ID,1690435066
42,kuala terengganu,5.3302,103.1408,89.55,66,20,5.75,MY,1690435066
43,ulladulla,-35.35,150.4667,70.18,31,0,7.34,AU,1690435067
44,ushuaia,-54.8,-68.3,29.86,69,40,9.22,AR,1690435067
45,talcahuano,-36.7167,-73.1167,47.88,100,75,4.61,CL,1690435069
46,nelson,-41.2833,173.2833,53.29,56,7,1.01,NZ,1690435069
47,hassi messaoud,31.6804,6.0729,85.86,58,0,6.91,DZ,1690435070
48,okhotsk,59.3833,143.3,66.16,77,72,7.05,RU,1690435070
49,siddipet,18.1,78.85,73.31,96,100,13.89,IN,1690435071
50,blackmans bay,-43.0167,147.3167,53.73,69,100,5.08,AU,1690435071
51,utrik,11.2278,169.8474,82.2,81,100,17.29,MH,1690435072
52,ust-nera,64.5667,143.2,58.1,54,95,7.72,RU,1690435072
53,hola,51.5377,23.1902,55.58,94,100,9.71,PL,1690435073
54,ola,59.5833,151.2833,64.15,98,100,6.08,RU,1690435073
55,iowa falls,42.5225,-93.2513,77.81,83,0,0.0,US,1690435074
56,chegdomyn,51.1167,133.0167,84.56,44,18,2.62,RU,1690435074
57,ozark,37.0209,-93.206,82.4,74,1,12.55,US,1690435038
58,mugia,43.1041,-9.2179,64.27,81,85,4.72,ES,1690435075
59,souillac,-20.5167,57.5167,73.78,83,40,3.44,MU,1690435076
60,concepcion,-36.827,-73.0498,48.0,100,75,4.61,CL,1690435077
61,niafunke,15.9322,-3.9906,89.96,40,100,11.36,ML,1690435077
62,iskateley,67.6803,53.1512,69.33,58,90,5.46,RU,1690435077
63,karratha,-20.7377,116.8463,75.79,39,76,12.62,AU,1690435078
64,pisco,-13.7,-76.2167,59.05,88,75,4.61,PE,1690435078
65,zakamensk,50.3741,103.2863,77.09,35,14,7.02,RU,1690435079
66,petauke,-14.2426,31.3253,55.85,88,0,2.84,ZM,1690435080
67,sur,22.5667,59.5289,86.65,65,84,7.52,OM,1690435080
68,anadyr,64.75,177.4833,54.1,81,100,13.0,RU,1690435081
69,ribeira grande,38.5167,-28.7,72.77,96,62,5.99,PT,1690435081
70,nishinoomote,30.7333,131.0,81.16,100,75,8.05,JP,1690435082
71,hithadhoo,-0.6,73.0833,83.08,78,29,15.32,MV,1690435083
72,albany,42.6001,-73.9662,74.23,83,100,5.46,US,1690435083
73,serhiyivka,46.0272,30.3768,72.23,80,100,3.42,UA,1690435084
74,champerico,14.3,-91.9167,82.47,74,22,2.44,GT,1690435084
75,maceio,-9.6658,-35.7353,69.24,100,0,4.61,BR,1690434937
76,port alfred,-33.5906,26.891,59.76,86,55,19.57,ZA,1690435085
77,roma,43.2128,-75.4557,76.37,72,75,8.05,US,1690435086
78,linjiang,41.8069,126.9078,84.27,62,98,8.43,CN,1690435086
79,huanan,46.2167,130.5167,87.31,58,82,6.02,CN,1690435087
80,pleiku,13.9833,108.0,74.75,90,100,9.42,VN,1690435088
81,sharjah,25.3573,55.4033,98.89,39,0,9.22,AE,1690435088
82,yellowknife,62.456,-114.3525,68.56,42,20,5.75,CA,1690435085
83,hasaki,35.7333,140.8333,102.29,71,15,13.06,JP,1690434831
84,wenatchee,47.4235,-120.3103,73.4,42,75,3.0,US,1690435090
85,maswa,-2.6833,33.9833,63.79,54,28,10.25,TZ,1690435091
86,ancud,-41.8697,-73.8203,46.53,95,100,6.76,CL,1690435093
87,marsabit,2.3284,37.9899,62.22,67,31,19.84,KE,1690435093
88,rujiena,57.8975,25.3316,56.05,79,99,4.45,LV,1690435094
89,kailua-kona,19.6406,-155.9956,82.36,81,40,6.91,US,1690435094
90,constantia,44.1833,28.65,68.7,87,99,15.3,RO,1690435095
91,qamdo,31.1667,97.2333,55.06,44,98,5.06,CN,1690435095
92,kingston,17.997,-76.7936,81.55,87,40,20.71,JM,1690435096
93,levanger,63.7464,11.2996,57.25,88,34,1.28,NO,1690435097
94,northam,51.0333,-4.2167,65.66,99,100,15.93,GB,1690435097
95,puerto ayora,-0.7393,-90.3518,76.55,93,86,7.0,EC,1690434870
96,tharangambadi,11.0319,79.8528,88.11,55,90,14.38,IN,1690435098
97,port lincoln,-34.7333,135.8667,63.73,65,97,17.2,AU,1690434896
98,stornoway,58.2093,-6.3865,57.16,90,75,5.75,GB,1690435049
99,college,64.8569,-147.8028,82.38,58,75,3.44,US,1690435100
100,durango,24.8333,-104.8333,70.9,36,78,2.62,MX,1690435100
101,miles city,46.4083,-105.8406,79.77,29,0,11.5,US,1690435101
102,jamestown,42.097,-79.2353,71.71,95,75,9.22,US,1690434993
103,san antonio de pale,-1.4014,5.6325,73.06,90,100,11.27,GQ,1690435102
104,suya,9.4667,3.1833,70.81,99,100,6.06,NG,1690435102
105,hadibu,12.65,54.0333,78.94,72,75,34.9,YE,1690435103
106,port douglas,-16.4833,145.4667,71.78,81,59,17.45,AU,1690435104
107,mandera,3.9366,41.867,77.65,57,46,18.7,KE,1690435104
108,sucua,-2.4667,-78.1667,69.42,97,83,2.15,EC,1690435105
109,porto uniao,-26.2381,-51.0783,53.74,97,50,1.5,BR,1690435106
110,kirensk,57.7853,108.1119,81.48,52,94,3.4,RU,1690435106
111,valka,57.7752,26.0101,56.05,91,98,1.01,LV,1690435107
112,olonkinbyen,70.9221,-8.7187,40.42,89,100,9.82,SJ,1690435107
113,punta arenas,-53.15,-70.9167,30.2,82,21,8.34,CL,1690434838
114,smithers,54.7804,-127.1743,57.52,72,20,3.44,CA,1690434817
115,lodeynoye pole,60.726,33.5531,62.65,89,27,2.19,RU,1690435109
116,douz,33.4663,9.0203,78.76,61,0,16.46,TN,1690435110
117,acarau,-2.8856,-40.12,76.8,88,14,14.85,BR,1690435110
118,constitucion,-35.3333,-72.4167,47.86,79,41,5.75,CL,1690435111
119,ciudad lazaro cardenas,17.9583,-102.2,81.25,80,83,5.17,MX,1690435111
120,alice springs,-23.7,133.8833,72.95,53,75,12.66,AU,1690435112
121,wanning,18.8003,110.3967,92.39,55,100,6.89,CN,1690435112
122,rikaze,29.25,88.8833,51.08,81,100,1.59,CN,1690435113
123,bilibino,68.0546,166.4372,52.41,69,100,3.11,RU,1690435114
124,avarua,-21.2078,-159.775,69.85,78,75,4.61,CK,1690435114
125,homer,59.6425,-151.5483,61.03,83,0,8.99,US,1690434942
126,weno,7.4515,151.8468,82.76,76,47,8.63,FM,1690435115
127,saudarkrokur,65.7461,-19.6394,45.3,89,12,4.34,IS,1690435116
128,tralee,52.2704,-9.7026,59.95,99,100,5.88,IE,1690435116
129,ilulissat,69.2167,-51.1,46.42,71,18,3.44,GL,1690435117
130,iqaluit,63.7506,-68.5145,44.33,81,40,2.3,CA,1690435118
131,fale old settlement,-9.3852,-171.2468,83.43,72,59,16.98,TK,1690435118
132,mejit,10.2753,170.8646,82.6,80,100,16.46,MH,1690435119
133,delray beach,26.4615,-80.0728,82.42,91,100,3.44,US,1690434847
134,heunghae,36.1125,129.3522,90.7,55,24,5.39,KR,1690435120
135,lorengau,-2.0226,147.2712,82.92,82,58,10.16,PG,1690435120
136,udachny,66.4167,112.4,67.95,42,100,7.63,RU,1690435121
137,tulun,54.5611,100.5792,71.64,60,91,8.99,RU,1690435121
138,kertih,4.5141,103.4483,89.62,70,40,9.22,MY,1690435122
139,tofol,5.3248,163.0078,83.34,72,100,4.85,FM,1690435122
140,dakhla,23.6848,-15.958,67.37,89,0,23.38,EH,1690435123
141,santiago del torno,-17.9833,-63.3833,64.58,80,87,6.62,BO,1690435123
142,susuman,62.7833,148.1667,49.05,82,100,4.05,RU,1690435124
143,itati,-27.2704,-58.2446,52.86,87,82,5.55,AR,1690435124
144,abong mbang,3.9833,13.1833,68.13,99,100,2.21,CM,1690435125
145,nhamunda,-2.1861,-56.7131,76.35,62,4,2.26,BR,1690435125
146,anshun,26.25,105.9333,73.58,82,100,3.27,CN,1690435126
147,ponneri,13.3167,80.2,89.58,54,98,18.84,IN,1690435126
148,marquette,46.5333,-87.6335,61.77,97,2,4.0,US,1690435127
149,babolsar,36.7025,52.6576,82.72,71,32,3.51,IR,1690435127
150,al qusiyah,27.4402,30.8184,86.27,34,53,11.03,EG,1690435128
151,caleta olivia,-46.4393,-67.5281,38.32,59,100,8.19,AR,1690435128
152,tabuk,17.4189,121.4443,85.48,73,100,10.36,PH,1690435129
153,pacasmayo,-7.4006,-79.5714,69.28,84,26,11.77,PE,1690435129
154,yung shue wan,22.2333,114.1167,97.81,50,38,7.49,HK,1690435130
155,polyarnyy,69.1989,33.4478,51.71,93,100,1.3,RU,1690435131
156,sola,-13.8833,167.55,75.24,82,100,31.23,VU,1690435131
157,uray,60.1247,64.7758,71.8,58,20,5.75,RU,1690435132
158,labrador city,52.9463,-66.9114,53.51,94,100,4.61,CA,1690435132
159,torata,-17.0769,-70.8433,54.18,37,0,2.53,PE,1690435133
160,trenggalek,-8.05,111.7167,83.75,100,69,7.36,ID,1690435133
161,chernyanka,50.9409,37.8069,73.85,61,61,8.84,RU,1690435134
162,hermanus,-34.4187,19.2345,52.65,84,1,7.4,ZA,1690435134
163,atasu,48.6814,71.6433,81.86,33,28,10.71,KZ,1690435135
164,sorong,-0.8833,131.25,83.86,74,36,14.34,ID,1690435135
165,salgueiro,-8.0742,-39.1192,66.27,86,19,7.94,BR,1690435134
166,ongjin,37.9347,125.3619,81.39,79,98,8.93,KP,1690435136
167,flin flon,54.7682,-101.865,51.21,95,100,11.1,CA,1690435137
168,nacala,-14.5428,40.6728,67.06,78,33,9.8,MZ,1690435137
169,atafu village,-8.5421,-172.5159,83.64,75,96,18.23,TK,1690435083
170,nuuk,64.1835,-51.7216,45.21,81,100,1.14,GL,1690435070
171,esquel,-42.9,-71.3167,35.24,94,100,2.98,AR,1690435021
172,ust'-ordynskiy,52.805,104.7508,75.16,51,51,12.59,RU,1690435140
173,tame,6.461,-71.73,72.72,93,93,2.59,CO,1690435141
174,uturoa,-16.7333,-151.4333,78.39,83,45,9.55,PF,1690435141
175,ulsteinvik,62.3432,5.8487,60.91,94,99,5.99,NO,1690435142
176,new carlisle,39.9362,-84.0255,81.9,73,75,16.11,US,1690435142
177,dubbo,-32.25,148.6167,68.13,42,0,9.22,AU,1690435143
178,thompson,55.7435,-97.8558,53.76,94,100,5.75,CA,1690435144
179,vadso,70.0744,29.7487,50.88,100,100,8.05,NO,1690434962
180,mushie,-3.0167,16.9,71.67,69,25,2.89,CD,1690435145
181,yigo village,13.5361,144.8886,82.69,83,100,17.27,GU,1690435146
182,andilamena,-17.0167,48.5833,56.8,78,62,9.08,MG,1690435146
183,borogontsy,62.6683,131.1683,75.07,40,78,4.29,RU,1690435147
184,severo-yeniseyskiy,60.3725,93.0408,64.58,86,100,4.0,RU,1690435148
185,hawaiian paradise park,19.5933,-154.9731,75.04,97,100,3.44,US,1690434895
186,badger,64.8,-147.5333,82.31,59,75,3.44,US,1690435149
187,tazacorte,28.629,-17.9293,70.77,84,0,9.22,ES,1690435149
188,urzhar,47.093,81.6294,98.22,13,2,8.28,KZ,1690435150
189,saint-louis du nord,19.9333,-72.7167,82.38,78,100,14.09,HT,1690435150
190,yuzhno-kurilsk,44.0306,145.8556,72.1,80,98,2.86,RU,1690435151
191,ciudad acuna,29.3232,-100.9522,91.69,31,0,13.8,MX,1690435151
192,larreynaga,12.6769,-86.5719,76.87,76,98,3.94,NI,1690435152
193,la'ie,21.6477,-157.9253,82.36,75,15,7.0,US,1690435152
194,sabang,5.8933,95.3214,82.6,77,97,18.97,ID,1690435153
195,enewetak,11.3474,162.3373,83.39,78,100,14.23,MH,1690435153
196,petropavlovsk-kamchatsky,53.0452,158.6483,66.79,64,40,13.42,RU,1690435154
197,uttaradit,17.6667,100.5,84.69,66,75,7.38,TH,1690435155
198,novodvinsk,64.4165,40.8122,60.24,83,100,2.44,RU,1690435156
199,kruisfontein,-34.0033,24.7314,48.88,87,43,6.76,ZA,1690435157
200,saipan,15.1355,145.701,83.1,100,40,11.5,MP,1690435157
201,askoy,60.4092,5.226,59.76,47,75,3.44,NO,1690435158
202,saint-philippe,-21.3585,55.7679,72.99,77,65,11.88,RE,1690435158
203,hanting,36.7708,119.2108,95.67,41,13,9.84,CN,1690435159
204,kourou,5.1552,-52.6478,75.25,92,81,6.29,GF,1690435159
205,fergus falls,46.283,-96.0776,79.86,65,0,10.36,US,1690435160
206,tiksi,71.6872,128.8694,45.59,73,54,5.7,RU,1690435160
207,aripuana,-9.1667,-60.6333,71.74,59,13,1.81,BR,1690435161
208,san luis de la loma,17.2706,-100.8939,80.4,83,70,4.52,MX,1690435162
209,san ramon,37.7799,-121.978,64.74,84,0,11.5,US,1690435121
210,santo antonio de padua,-21.5394,-42.1803,66.61,95,55,0.31,BR,1690435086
211,yeppoon,-23.1333,150.7333,73.18,67,38,17.6,AU,1690435164
212,justo daract,-33.8594,-65.1828,46.8,46,98,8.43,AR,1690435164
213,georgetown,5.4112,100.3354,91.33,70,20,8.05,MY,1690435165
214,labytnangi,66.6572,66.4183,64.24,89,100,8.28,RU,1690435165
215,nova vicosa,-17.8919,-39.3719,69.69,77,4,3.22,BR,1690435166
216,chonchi,-42.6128,-73.8092,46.11,99,100,3.67,CL,1690435167
217,kodiak,57.79,-152.4072,56.71,82,0,6.91,US,1690435167
218,harmanli,41.9333,25.9,72.84,68,58,8.88,BG,1690435168
219,pedregal,8.3667,-82.4333,82.2,85,100,2.66,PA,1690435168
220,vila do maio,15.1333,-23.2167,79.59,82,100,9.69,CV,1690434978
221,sosnogorsk,63.6023,53.8817,64.53,62,96,3.33,RU,1690435169
222,saint-pierre,-21.3393,55.4781,74.57,64,20,4.61,RE,1690435170
223,envira,-7.3,-70.2167,72.28,62,21,1.88,BR,1690435170
224,taltal,-25.4,-70.4833,59.4,83,50,3.18,CL,1690435171
225,ambalangoda,6.2355,80.0538,83.25,73,100,8.79,LK,1690435172
226,vilyuchinsk,52.9306,158.4028,68.27,85,99,6.31,RU,1690434950
227,labuan,5.2767,115.2417,88.16,74,20,3.44,MY,1690435173
228,novoderevyankovskaya,46.3231,38.7472,81.25,43,0,13.29,RU,1690435173
229,zajecar,43.9036,22.2641,62.56,72,58,10.67,RS,1690435174
230,cortina d'ampezzo,46.5384,12.1377,46.76,72,13,1.97,IT,1690435174
231,orel,52.9658,36.0803,71.85,72,91,6.6,RU,1690435175
232,keren,15.7778,38.4581,67.62,84,95,7.14,ER,1690435175
233,hakha,22.65,93.6167,77.32,56,68,0.76,MM,1690434893
234,arkhangel'sk,64.5401,40.5433,62.35,75,100,2.53,RU,1690435176
235,muisne,0.6,-80.0333,77.14,81,90,6.2,EC,1690435177
236,spruce grove,53.5334,-113.9187,56.79,92,75,6.91,CA,1690435177
237,rio grande,-32.035,-52.0986,50.95,90,1,14.18,BR,1690434968
238,chernyshevsk,52.5243,117.0174,78.94,47,84,10.85,RU,1690435178
239,arhribs,36.7936,4.3116,72.12,52,0,7.09,DZ,1690435179
240,ad darbasiyah,37.0728,40.652,95.4,18,0,1.14,SY,1690435180
241,stanley,54.868,-1.6985,57.27,94,100,2.3,GB,1690435180
242,tura,25.5198,90.2201,84.7,73,99,7.23,IN,1690435181
243,lospalos,-8.5186,127.0025,72.68,76,84,9.66,TL,1690435181
244,malmberget,67.1753,20.6549,54.16,94,40,0.0,SE,1690435182
245,bodo,67.28,14.405,60.78,88,0,5.75,NO,1690435182
246,mount pearl,47.5166,-52.7813,63.45,85,20,16.11,CA,1690435183
247,nova sintra,14.8667,-24.7167,73.33,85,77,15.52,CV,1690435184
248,katrineholm,58.9959,16.2072,56.73,81,57,5.35,SE,1690435184
249,kununurra,-15.7667,128.7333,82.38,26,7,8.05,AU,1690435185
250,alofi,-19.0595,-169.9187,71.49,83,97,3.44,NU,1690435185
251,lauro de freitas,-12.8944,-38.3272,75.22,94,75,13.8,BR,1690435040
252,mersa matruh,31.3525,27.2453,77.2,73,0,5.75,EG,1690435186
253,suntar,62.1444,117.6319,75.81,41,71,9.53,RU,1690435187
254,cockburn town,21.4612,-71.1419,83.08,82,70,21.72,TC,1690435188
255,poronaysk,49.2167,143.1167,77.49,65,54,2.77,RU,1690435188
256,cole harbour,44.6724,-63.4751,68.18,90,49,14.97,CA,1690435189
257,kharp,66.8014,65.8081,62.47,90,100,4.03,RU,1690435189
258,callao,-12.0667,-77.15,68.29,77,100,5.75,PE,1690435190
259,kristianstad,56.0313,14.1524,57.34,94,100,5.75,SE,1690435190
260,voskresenskoye,56.8381,45.4317,70.05,86,31,11.07,RU,1690435191
261,colonia,50.9333,6.95,60.3,88,100,8.05,DE,1690435191
262,cooma,-36.2333,149.1333,59.23,27,0,10.65,AU,1690435191
263,port elizabeth,-33.918,25.5701,51.1,83,62,11.1,ZA,1690435192
264,namibe,-15.1961,12.1522,58.86,90,70,5.26,AO,1690435192
265,krapivinskiy,54.9992,86.8133,79.2,46,65,1.54,RU,1690435193
266,nadi,-17.8,177.4167,69.8,83,100,8.05,FJ,1690434974
267,tazovsky,67.4667,78.7,67.87,65,11,3.2,RU,1690435194
268,yangambi,0.8102,24.4336,71.26,96,94,1.3,CD,1690435194
269,mammoth lakes,37.6485,-118.9721,63.32,39,0,8.05,US,1690435195
270,salinas,36.6777,-121.6555,59.99,87,100,9.22,US,1690434841
271,talnakh,69.4865,88.3972,83.21,42,45,4.34,RU,1690435196
272,ketchikan,55.3422,-131.6461,63.07,82,100,4.61,US,1690435196
273,mahenge,-8.6833,36.7167,61.09,69,34,1.77,TZ,1690435197
274,boa vista,2.8197,-60.6733,75.18,94,20,3.44,BR,1690434992
275,ansermanuevo,4.7972,-75.995,66.94,97,76,2.21,CO,1690435198
276,sungai penuh,-2.0833,101.3833,81.12,52,45,5.08,ID,1690435198
277,houghton,47.1219,-88.569,63.88,97,100,5.75,US,1690435199
278,humberto de campos,-2.5983,-43.4611,75.09,90,7,4.27,BR,1690435199
279,happy valley-goose bay,53.3168,-60.3315,64.71,68,20,5.75,CA,1690435200
280,naousa,40.6329,22.0534,72.01,59,8,7.14,GR,1690435200
281,terme,41.2092,36.9739,73.33,53,0,3.49,TR,1690435201
282,vallenar,-28.5708,-70.7581,58.93,72,100,3.65,CL,1690435202
283,qaqortoq,60.7167,-46.0333,44.46,80,95,7.45,GL,1690435202
284,puerto baquerizo moreno,-0.9,-89.6,74.95,81,94,13.4,EC,1690435203
285,ar ruways,24.1103,52.7306,96.12,62,97,6.29,AE,1690435204
286,vorgashor,67.5833,63.95,60.33,83,98,5.19,RU,1690435204
287,chipinge,-20.1883,32.6236,50.77,86,0,2.28,ZW,1690435205
288,conduaga,8.862,117.4893,86.67,63,74,15.08,PH,1690435205
289,mazamari,-11.3258,-74.5308,74.44,70,97,1.36,PE,1690435207
290,mossel bay,-34.1831,22.146,48.13,81,16,6.46,ZA,1690435207
291,reggane,26.7158,0.1714,97.9,15,14,5.19,DZ,1690435208
292,san matias,-16.3667,-58.4,76.84,39,43,2.39,BO,1690435209
293,sechura,-5.5569,-80.8222,70.97,79,3,12.44,PE,1690435210
294,zahedan,29.4963,60.8629,91.31,18,13,9.22,IR,1690435011
295,onega,63.9061,38.1404,61.9,74,78,3.6,RU,1690435211
296,cabedelo,-6.9811,-34.8339,74.07,87,61,9.69,BR,1690435212
297,nemuro,43.3236,145.575,68.81,87,97,7.85,JP,1690435212
298,tulsipur,28.131,82.2973,85.6,63,79,4.92,NP,1690435213
299,fitzgerald,31.7149,-83.2526,79.3,88,0,0.0,US,1690435213
300,vorkuta,67.5,64.0,61.27,83,99,4.79,RU,1690435214
301,birobidzhan,48.8,132.95,87.37,58,9,8.61,RU,1690435214
302,san pascual,13.7975,121.0342,88.63,72,99,16.73,PH,1690435215
303,antsiranana,-12.2787,49.2917,75.58,65,0,19.84,MG,1690435215
304,lexington,37.9887,-84.4777,80.6,79,0,9.22,US,1690434485
305,kansipati,6.0011,121.2344,84.9,72,91,12.91,PH,1690435216
306,yaren,-0.5472,166.916,84.02,75,52,9.01,NR,1690434955
307,solone,48.2081,34.8721,77.16,62,5,12.33,UA,1690435217
308,punta del este,-34.9667,-54.95,51.91,79,75,17.27,UY,1690435218
309,tsiombe,-25.3,45.4833,66.88,54,0,14.25,MG,1690435219
310,yamada,39.4667,141.95,82.15,72,54,0.89,JP,1690435219
311,ugoofaaru,5.6667,73.0,82.72,70,100,2.13,MV,1690435220
312,cortez,37.3489,-108.5859,79.56,41,0,4.61,US,1690435221
313,katoya,23.65,88.1333,92.59,58,58,12.64,IN,1690435221
314,bathsheba,13.2167,-59.5167,82.06,92,20,17.27,BB,1690435222
315,margate,51.3813,1.3862,62.91,95,100,8.99,GB,1690435223
316,ballito,-29.539,31.2144,55.54,76,0,2.3,ZA,1690435223
317,cholpon-ata,42.6494,77.0823,80.65,52,75,1.81,KG,1690435224
318,savanna-la-mar,18.219,-78.1332,82.35,89,80,4.43,JM,1690435224
319,mo i rana,66.3128,14.1428,60.33,89,0,1.14,NO,1690435225
320,sitka,57.0531,-135.33,60.69,82,100,4.61,US,1690435225
321,santiago del estero,-27.7951,-64.2615,51.96,60,11,6.67,AR,1690435226
322,coxen hole,16.3244,-86.5366,78.08,89,20,3.44,HN,1690435226
323,sao vicente,-23.9631,-46.3919,75.38,26,4,5.88,BR,1690435227
324,gadzhiyevo,69.2551,33.3362,51.84,92,100,1.36,RU,1690435227
325,petropavlovka,50.6114,105.3196,76.66,49,9,0.94,RU,1690435228
326,linqiong,30.4159,103.4609,75.02,82,75,9.35,CN,1690435228
327,kalix,65.853,23.1565,59.14,80,68,4.27,SE,1690435230
328,shizunai-furukawacho,42.3339,142.3669,77.0,84,92,5.57,JP,1690435230
329,holualoa,19.6228,-155.9522,78.64,81,40,6.91,US,1690435224
330,abeche,13.8292,20.8324,77.77,74,100,11.43,TD,1690435231
331,tolanaro,-25.0319,46.9987,67.75,56,86,11.1,MG,1690435232
332,benguela,-12.5763,13.4055,66.25,88,37,5.75,AO,1690435165
333,ulan bator,47.9077,106.8832,75.33,35,20,8.95,MN,1690435137
334,mana,5.6592,-53.7767,76.82,88,100,6.58,GF,1690435234
335,puerto deseado,-47.7503,-65.8938,32.99,70,77,6.55,AR,1690434998
336,natal,-5.795,-35.2094,74.05,100,75,8.05,BR,1690434936
337,aykhal,66.0,111.5,59.94,64,100,8.84,RU,1690435235
338,kone,-21.0595,164.8658,72.48,49,1,10.54,NC,1690435236
339,bridlington,54.0831,-0.1919,60.89,95,100,3.0,GB,1690435236
340,palmer,42.1584,-72.3287,72.77,77,0,8.05,US,1690435237
341,lukhovka,54.1484,45.2573,74.5,77,37,12.3,RU,1690435237
342,yantarnyy,54.8717,19.9381,61.75,78,100,15.9,RU,1690435238
343,hilo,19.7297,-155.09,75.25,96,100,3.44,US,1690435011
344,sao tome,0.3365,6.7273,75.29,87,93,8.32,ST,1690435239
345,nar'yan-mar,67.6713,53.087,69.4,58,89,5.48,RU,1690435239
346,soygaon,20.6,75.6167,81.41,79,100,15.48,IN,1690435240
347,timimoun,29.2639,0.231,91.78,12,0,9.22,DZ,1690435240
348,luorong,24.4058,109.6086,95.36,53,84,8.43,CN,1690435241
349,matoury,4.8483,-52.3317,75.16,100,64,0.0,GF,1690435241
350,pitimbu,-7.4706,-34.8086,73.99,87,55,8.66,BR,1690435038
351,talara,-4.5772,-81.2719,70.68,84,7,13.67,PE,1690435242
352,elesbao veloso,-6.2019,-42.1403,70.25,51,4,3.91,BR,1690435243
353,urucara,-2.5364,-57.76,75.18,62,7,1.12,BR,1690435243
354,taksimo,56.3444,114.8794,83.61,42,68,3.58,RU,1690435244
355,porto novo,6.4965,2.6036,78.62,95,98,5.12,BJ,1690434960
356,salaqi,40.5414,110.5108,88.23,35,100,7.94,CN,1690435245
357,curup,-3.4667,102.5333,83.88,56,59,4.12,ID,1690435245
358,lazaro cardenas,17.9583,-102.2,81.25,80,83,5.17,MX,1690435246
359,akrehamn,59.2667,5.1833,57.99,94,75,4.61,NO,1690435246
360,mazagao,-0.115,-51.2894,77.05,91,41,3.65,BR,1690435247
361,vilalba,43.3,-7.6833,61.09,98,62,1.01,ES,1690435247
362,chernyshevskiy,63.0128,112.4714,74.5,43,49,9.93,RU,1690435248
363,sidi okba,34.7451,5.8983,84.49,58,0,2.3,DZ,1690435248
364,las heras,-46.5419,-68.9359,30.65,67,100,3.0,AR,1690435249
365,east london,-33.0153,27.9116,61.34,79,80,15.03,ZA,1690435147
366,beihai,21.4833,109.1,88.95,68,58,10.2,CN,1690435250
367,motueka,-41.1333,173.0167,54.1,64,4,7.34,NZ,1690435251
368,dudinka,69.4058,86.1778,83.62,50,75,6.31,RU,1690435251
369,maridi,4.9158,29.4742,67.23,97,100,1.66,SS,1690435251
370,katiola,8.1333,-5.1,75.83,99,84,4.76,CI,1690435252
371,tual,-5.6667,132.75,78.91,82,65,18.7,ID,1690435253
372,rio san juan,19.6439,-70.0763,76.15,85,100,8.86,DO,1690435253
373,sinop,41.7711,34.8709,80.04,42,0,11.07,TR,1690435254
374,castillos,-34.1667,-53.8333,47.57,87,3,11.81,UY,1690435254
375,phai sali,15.5976,100.6585,92.1,52,78,7.65,TH,1690435255
376,niimi,34.9833,133.4667,97.39,45,22,5.23,JP,1690435255
377,cabo san lucas,22.8909,-109.9124,85.6,79,51,3.0,MX,1690435085
378,george town,5.4112,100.3354,91.33,70,20,8.05,MY,1690435256
379,egilsstadir,65.2653,-14.3948,42.71,93,100,10.36,IS,1690435257
380,santa marinella,42.0345,11.8536,69.71,78,8,3.56,IT,1690435257
381,walvis bay,-22.9575,14.5053,53.1,82,0,1.83,NA,1690435258
382,peace river,56.2501,-117.286,61.11,94,100,5.75,CA,1690435133
383,sao miguel,-5.4667,-35.3667,74.17,87,64,11.43,BR,1690435259
384,san rafael del yuma,18.4299,-68.6739,80.17,83,100,5.21,DO,1690435259
385,new norfolk,-42.7826,147.0587,54.91,47,100,5.01,AU,1690435260
386,vila velha,-20.3297,-40.2925,66.94,96,0,2.3,BR,1690435260
387,port sudan,19.6175,37.2164,98.67,36,3,21.16,SD,1690435261
388,thinadhoo,0.5333,72.9333,83.93,76,90,13.69,MV,1690435261
389,rexburg,43.826,-111.7897,75.18,29,0,11.5,US,1690435153
390,la ronge,55.1001,-105.2842,53.85,76,100,11.5,CA,1690435262
391,pacific grove,36.6177,-121.9166,58.68,92,100,6.91,US,1690435263
392,choibalsan,48.0667,114.5,80.04,35,0,9.17,MN,1690435264
393,port augusta,-32.5,137.7667,64.56,46,89,8.79,AU,1690435164
394,aljezur,37.3191,-8.8033,63.61,92,79,13.06,PT,1690435032
395,salto,-31.3833,-57.9667,44.87,99,99,1.99,UY,1690434977
396,birao,10.2849,22.7882,72.37,91,100,1.81,CF,1690435266
397,gwadar,25.1216,62.3254,83.34,80,99,10.63,PK,1690435266
398,hoi an,15.8794,108.335,96.76,51,79,5.75,VN,1690435267
399,kidal,18.4411,1.4078,88.84,39,68,9.04,ML,1690435267
400,san luis,-33.295,-66.3356,48.78,44,97,7.0,AR,1690435097
401,san pablo villa de mitla,16.9167,-96.4,59.77,88,36,5.28,MX,1690435268
402,vanimo,-2.6741,141.3028,79.65,86,100,1.63,PG,1690435269
403,panaba,21.2833,-88.2667,78.51,89,46,7.85,MX,1690435269
404,kurchatov,51.6601,35.6521,72.41,60,92,10.11,RU,1690435270
405,valle de la pascua,9.2155,-66.0073,72.88,96,100,3.2,VE,1690435270
406,romblon,12.5751,122.2708,83.44,80,97,28.7,PH,1690435271
407,palikir - national government center,6.9248,158.1611,86.85,79,75,4.61,FM,1690435271
408,meadow lakes,61.6247,-149.6011,69.24,76,100,0.0,US,1690435272
409,kampene,-3.6,26.6667,65.46,53,69,2.15,CD,1690435272
410,chak thirty-one -eleven left,30.4333,72.7,80.83,91,100,10.09,PK,1690435273
411,westport,41.1415,-73.3579,77.76,86,0,13.8,US,1690435171
412,san andres,12.5847,-81.7006,82.38,83,100,18.79,CO,1690435274
413,nahiyat ash shinafiyah,31.5874,44.6602,103.71,10,1,6.55,IQ,1690435275
414,sigayevo,56.4216,53.7757,74.95,66,77,10.18,RU,1690435276
415,fisterra,42.9049,-9.2629,64.2,82,53,7.2,ES,1690435276
416,kupang,-10.1667,123.5833,80.6,60,15,11.63,ID,1690435277
417,ta`u,-14.2336,-169.5144,77.76,76,95,15.3,AS,1690435277
418,paramonga,-10.6667,-77.8333,67.19,81,87,5.93,PE,1690435278
419,berezovo,63.9381,65.0419,59.18,96,100,4.12,RU,1690435278
420,velyka pysarivka,50.4259,35.485,73.98,54,62,12.62,UA,1690435279
421,portland,45.5234,-122.6762,73.38,58,75,9.22,US,1690435226
422,katabu,-4.9333,122.5167,87.8,49,12,3.0,ID,1690435280
423,howard springs,-12.497,131.047,82.81,29,100,2.46,AU,1690435280
424,sodankyla,67.4167,26.6,59.63,74,63,2.68,FI,1690435281
425,keflavik,64.0049,-22.5624,48.63,87,0,5.75,IS,1690435281
426,diu,20.7141,70.9822,82.8,81,100,17.34,IN,1690435282
427,belyy yar,53.6039,91.3903,75.09,57,0,4.47,RU,1690435282
428,taroa,8.7058,171.2275,82.94,77,100,11.21,MH,1690435277
429,labuan bajo,-8.4964,119.8877,84.0,56,8,7.07,ID,1690435283
430,usogorsk,63.4106,48.6872,67.86,56,100,8.41,RU,1690435284
431,snihurivka,47.0758,32.8052,74.97,77,19,4.14,UA,1690435284
432,hobyo,5.3505,48.5268,78.8,72,75,25.41,SO,1690435285
433,turkan,40.3639,50.215,82.58,61,0,2.3,AZ,1690435285
434,mao,39.8885,4.2658,73.96,83,0,2.3,ES,1690435286
435,east moriches,40.8051,-72.7609,77.02,92,20,6.91,US,1690435284
436,el hajeb,33.6879,-5.371,58.96,71,0,1.92,MA,1690435287
437,isangel,-19.55,169.2667,71.62,58,47,17.25,VU,1690435287
438,merritt island,28.5392,-80.672,82.4,90,0,4.61,US,1690434771
439,kaiapoi,-43.3783,172.6401,50.07,56,40,20.71,NZ,1690435289
440,pamandzi,-12.7967,45.2794,78.58,73,75,11.5,YT,1690435289
441,coquimbo,-29.9533,-71.3436,55.13,94,100,2.3,CL,1690435000
442,st. john's,47.5649,-52.7093,64.27,85,20,16.11,CA,1690435209
443,sinabang,2.4803,96.3801,85.24,69,83,4.14,ID,1690435291
444,sitangkai,4.6628,119.3928,82.67,79,88,20.76,PH,1690435291
445,baie-comeau,49.2168,-68.1489,64.08,88,0,11.5,CA,1690435229
446,anna regina,7.2644,-58.5077,78.33,89,4,5.12,GY,1690435292
447,nikel,69.4128,30.222,50.18,88,98,2.39,RU,1690435293
448,santa ana de yacuma,-13.75,-65.4333,75.27,51,6,5.21,BO,1690435293
449,touros,-5.1989,-35.4608,75.13,88,47,11.03,BR,1690435294
450,fort stockton,30.894,-102.8793,82.17,36,55,1.01,US,1690435294
451,sao felix do xingu,-6.6447,-51.995,72.16,56,15,1.7,BR,1690435295
452,berlin,52.5244,13.4105,59.86,84,0,7.0,DE,1690434900
453,morehead city,34.7229,-76.726,84.2,85,94,4.0,US,1690435296
454,sarmiento,-45.5882,-69.07,35.13,59,100,4.29,AR,1690435297
455,seydi,39.4816,62.9137,102.43,15,13,15.64,TM,1690435297
456,rajo khanani,24.9841,68.8536,89.83,65,84,15.21,PK,1690435298
457,afaahiti,-17.75,-149.2833,75.07,83,61,6.55,PF,1690435298
458,kapa'a,22.0752,-159.319,82.38,81,20,16.11,US,1690435280
459,zemio,5.0314,25.1361,69.24,96,100,2.19,CF,1690435300
460,la gi,10.6667,107.7833,82.94,81,97,15.32,VN,1690435300
461,chipata,-13.6333,32.65,54.23,88,11,5.08,ZM,1690435301
462,calama,-22.4667,-68.9333,47.79,27,0,5.5,CL,1690435301
463,port macquarie,-31.4333,152.9167,66.88,56,0,10.49,AU,1690435302
464,lodja,-3.4833,23.4333,70.03,48,67,0.83,CD,1690435115
465,krasnovishersk,60.4078,57.082,67.12,59,57,4.05,RU,1690435303
466,vaggeryd,57.4981,14.1484,55.17,92,100,8.95,SE,1690435303
467,crane,31.3974,-102.3501,85.51,31,62,13.4,US,1690435217
468,novyy urengoy,66.0833,76.6333,78.04,44,87,5.39,RU,1690435278
469,alta,69.9689,23.2717,58.26,81,0,10.0,NO,1690435305
470,salekhard,66.53,66.6019,63.55,92,100,7.78,RU,1690435305
471,regeneracao,-6.2378,-42.6883,69.22,53,5,3.09,BR,1690435306
472,san kamphaeng,18.7449,99.1195,98.01,57,75,6.91,TH,1690435306
473,arawa,-6.2132,155.5367,85.68,74,75,4.92,PG,1690435307
474,pijijiapan,15.7011,-93.23,79.34,72,36,4.65,MX,1690435307
475,peniche,39.3558,-9.3811,67.28,83,98,16.75,PT,1690435258
476,segou,13.4317,-6.2157,81.91,66,69,9.28,ML,1690435308
477,guatrache,-37.6678,-63.5302,40.39,58,100,5.99,AR,1690435308
478,okondja,-0.6549,13.6753,71.92,86,64,2.33,GA,1690435309
479,meizhou,24.2977,116.1072,92.08,53,85,9.15,CN,1690435309
480,el triunfo,-1.9333,-79.9667,77.04,81,38,4.18,EC,1690435310
481,sisimiut,66.9395,-53.6735,40.15,93,57,8.3,GL,1690435310
482,yalihuyuk,37.3008,32.0855,81.1,22,0,1.77,TR,1690435311
483,lompoc,34.6391,-120.4579,59.14,95,100,8.05,US,1690435311
484,howrah,22.5892,88.3103,87.8,79,75,11.5,IN,1690435276
485,colares,38.7992,-9.4469,68.95,83,92,30.0,PT,1690435312
486,pueblo,38.2545,-104.6091,77.09,54,0,6.91,US,1690435313
487,ghat,24.9647,10.1728,83.55,12,2,0.51,LY,1690435313
488,ironwood,46.4547,-90.171,63.55,100,20,3.44,US,1690435313
489,villa juarez,24.6536,-107.5411,86.25,70,75,4.61,MX,1690435314
490,parauapebas,-6.0675,-49.9022,72.72,54,2,0.96,BR,1690435314
491,cerro largo,-28.1486,-54.7381,50.16,94,31,4.85,BR,1690435315
492,mount isa,-20.7333,139.5,80.37,50,6,12.66,AU,1690435316
493,arraial do cabo,-22.9661,-42.0278,69.73,90,54,21.88,BR,1690435316
494,calliope,-24.0,151.2,75.04,41,81,18.41,AU,1690435317
495,praia da vitoria,38.7333,-27.0667,72.75,94,20,7.43,PT,1690435317
496,fortaleza,-3.7227,-38.5247,79.21,83,20,10.36,BR,1690435207
497,vila franca do campo,37.7167,-25.4333,70.21,88,3,5.97,PT,1690435084
498,grand falls-windsor,48.9332,-55.6649,65.5,90,14,6.11,CA,1690435319
499,corinto,37.9407,22.9573,87.89,63,0,11.5,GR,1690435073
500,prince george,53.9166,-122.753,59.25,87,100,3.44,CA,1690435210
501,bhimunipatnam,17.8833,83.4333,85.51,86,92,17.38,IN,1690435320
502,sadovoye,47.7764,44.5089,84.34,35,0,7.96,RU,1690435148
503,sirte,31.2089,16.5887,81.46,77,0,11.86,LY,1690435321
504,wenshui,28.4506,106.5267,72.45,88,100,2.91,CN,1690435321
505,mata-utu,-13.2816,-176.1745,80.29,76,100,16.89,WF,1690435322
506,abu jibeha,11.4562,31.2285,71.06,93,99,5.41,SD,1690435322
507,velikiy ustyug,60.7644,46.3106,65.52,99,100,5.55,RU,1690435323
508,carboneras,37.0015,-1.9213,79.32,84,20,8.12,ES,1690435324
509,velyka oleksandrivka,47.3197,33.3037,76.24,62,9,1.86,UA,1690435324
510,dzuunmod,48.2199,97.3744,73.8,24,64,5.99,MN,1690435325
511,kelibia,36.8476,11.0939,75.45,69,0,4.61,TN,1690435325
512,morris,40.8334,-74.5329,74.21,81,0,1.01,US,1690435318
513,belmont,37.5202,-122.2758,64.67,86,0,14.97,US,1690435326
514,sastre,-31.7676,-61.8289,45.72,56,98,2.62,AR,1690435327
515,upington,-28.4478,21.2561,34.18,80,0,3.44,ZA,1690435327
516,krasnyy chikoy,50.3643,108.7512,76.21,45,90,11.61,RU,1690435328
517,piacabucu,-10.4056,-36.4344,72.32,85,46,2.73,BR,1690435328
518,salalah,17.0151,54.0924,78.89,89,100,10.36,OM,1690435072
519,san patricio,28.017,-97.5169,84.85,77,43,12.8,US,1690435329
520,luena,-11.7833,19.9167,59.18,58,3,4.61,AO,1690435330
521,conceicao do araguaia,-8.2578,-49.2647,71.2,45,5,3.0,BR,1690435330
522,bardai,11.65,7.2333,72.32,82,99,11.92,NG,1690435331
523,pailon,-17.65,-62.75,67.1,68,82,10.31,BO,1690435331
524,cotronei,39.1582,16.7809,67.33,49,0,4.92,IT,1690435332
525,bangar,16.8936,120.4243,79.36,92,100,15.86,PH,1690435332
526,at taj,24.2049,23.2857,81.97,17,92,7.27,LY,1690435333
527,kani keli,-12.9536,45.1033,78.06,70,55,19.82,YT,1690435333
528,changzhi,35.2089,111.7386,91.24,45,100,10.56,CN,1690435334
529,zhangye,38.9342,100.4517,92.61,13,51,4.81,CN,1690435335
530,olovyannaya,50.95,115.5667,76.66,43,59,16.6,RU,1690435335
531,tabou,4.423,-7.3528,75.79,90,99,7.02,CI,1690435335
532,jijiga,9.35,42.8,64.62,72,73,21.34,ET,1690435336
533,ilomantsi,62.6716,30.9328,61.7,78,100,3.13,FI,1690435337
534,loughrea,53.1969,-8.5669,58.5,97,100,9.37,IE,1690435049
535,queenstown,-31.8976,26.8753,47.8,86,23,3.91,ZA,1690435338
536,chul'man,56.8479,124.9104,79.03,46,32,6.46,RU,1690435338
537,corner brook,48.9667,-57.9484,64.56,98,42,5.14,CA,1690435339
538,awjilah,29.1081,21.2869,86.9,24,0,5.64,LY,1690435339
539,kedrovyy,56.1667,91.8167,75.87,47,25,5.48,RU,1690435340
540,matamba,-8.9833,33.9667,49.05,61,9,4.34,TZ,1690435340
541,oranjemund,-28.55,16.4333,51.96,71,0,5.5,NA,1690435340
542,jiehu,35.5428,118.455,88.77,63,27,7.0,CN,1690435341
543,barberino di mugello,44.0027,11.2371,65.55,84,13,3.65,IT,1690435341
544,al ghayzah,16.2079,52.176,79.48,81,69,9.42,YE,1690435342
545,rethel,49.5,4.3333,62.47,93,100,9.17,FR,1690435343
546,petatlan,17.5167,-101.2667,79.05,82,84,2.77,MX,1690435343
547,remire-montjoly,4.9167,-52.2667,75.24,100,60,0.0,GF,1690435344
548,kosong,38.3788,128.4676,84.69,59,41,1.59,KR,1690435344
549,tikhvin,59.6451,33.5294,60.22,94,71,5.91,RU,1690435345
550,guigang,23.0964,109.6092,95.61,54,89,6.4,CN,1690435345
551,pingliang,35.5392,106.6861,66.29,83,100,7.96,CN,1690435346
552,shakhan,49.8233,72.6342,78.12,41,6,14.36,KZ,1690435347
553,vinaros,40.4703,0.4756,73.9,73,0,5.79,ES,1690435348
554,bam,29.106,58.357,96.58,17,18,14.72,IR,1690435348
555,birjand,32.8663,59.2211,88.27,19,0,18.41,IR,1690435349
556,murashi,59.3999,48.9615,65.84,95,90,8.97,RU,1690435350
557,kolwezi,-10.7148,25.4667,54.37,54,52,7.25,CD,1690435351
558,lilongwe,-13.9669,33.7873,55.6,94,0,0.0,MW,1690435144
559,conde,-7.2597,-34.9075,72.86,94,75,8.05,BR,1690435352
560,revda,56.801,59.9303,70.95,62,31,6.67,RU,1690435352
561,marshfield,44.6689,-90.1718,71.55,94,0,3.44,US,1690435328
562,taber,49.8167,-112.1518,64.24,51,8,23.02,CA,1690435353
563,kiunga,-6.1219,141.2906,79.83,89,92,1.54,PG,1690435354
564,carutapera,-1.195,-46.02,76.17,89,31,5.61,BR,1690435354
565,suva,-18.1416,178.4415,67.48,94,100,4.61,FJ,1690435355
566,geraldton,-28.7667,114.6,63.01,67,100,8.05,AU,1690435355
567,vryburg,-26.9566,24.7284,48.56,73,1,10.45,ZA,1690435356
568,harper,4.375,-7.7169,76.1,89,99,8.19,LR,1690435356
569,ambon,-3.6954,128.1814,81.88,95,40,4.61,ID,1690435357
570,longboat key,27.4125,-82.659,82.4,56,0,3.44,US,1690435304
571,amga,60.8953,131.9608,76.86,38,100,6.17,RU,1690435358
572,tommot,58.9564,126.2925,82.0,50,4,7.81,RU,1690435358
573,huarmey,-10.0681,-78.1522,67.75,83,85,7.27,PE,1690435359
574,saint-joseph,-21.3667,55.6167,73.47,78,80,10.16,RE,1690435359
575,san jose del guaviare,2.5729,-72.6459,75.24,88,100,1.39,CO,1690435360
576,purcellville,39.1368,-77.7147,78.49,85,0,6.91,US,1690435360
577,kristiansund,63.1115,7.732,59.05,94,100,8.05,NO,1690435361
578,suining,30.508,105.5733,75.27,94,100,12.06,CN,1690435152
579,sao joao da barra,-21.6403,-41.0511,70.7,87,94,12.97,BR,1690435086
580,siwa oasis,29.2041,25.5195,86.11,31,1,3.74,EG,1690435363
581,trevelin,-43.0858,-71.4639,37.18,94,100,2.01,AR,1690435363
582,abalak,58.1286,68.5944,72.75,55,55,6.2,RU,1690435364
583,sao bento,-6.2833,-37.75,67.62,75,0,5.75,BR,1690435287
584,banda aceh,5.5577,95.3222,87.96,60,96,14.16,ID,1690435365
585,caldwell,43.6629,-116.6874,81.75,47,0,4.61,US,1690435111
586,casas grandes,30.3667,-107.95,85.37,22,17,2.77,MX,1690435365
587,saguenay,48.4168,-71.0657,74.23,64,100,9.22,CA,1690435243
588,burutu,5.3509,5.5076,76.5,90,100,4.5,NG,1690435366
589,port-vila,-17.7338,168.3219,73.0,64,75,17.27,VU,1690435367
590,rongelap,11.1635,166.8941,83.39,76,100,17.74,MH,1690435367
591,vradiyivka,47.862,30.5919,65.93,87,100,2.51,UA,1690435368
592,beloyarskiy,63.7119,66.6722,58.23,98,100,4.92,RU,1690435368
593,barro alto,-11.7608,-41.9117,62.11,93,56,7.87,BR,1690435369
594,cannonvale,-20.2833,148.7,69.19,63,56,18.05,AU,1690435370
